{
    "markerid": [
      {
        "title": "Woei",
        "description": "Woei is a boutique sneaker store that offers a carefully curated selection of sneakers, clothing, and accessories.",
        "latitude": 51.92274,
        "longitude": 4.49352
      },
      {
        "title": "Ansh46",
        "description": "Ansh46 is a high-end sneaker store featuring a blend of luxury fashion and streetwear brands.",
        "latitude": 51.91925,
        "longitude":  4.47421
      },
      {
        "title": "Oqium",
        "description": "Its an sneaker store where u can find special releases and nba merch.",
        "latitude": 51.92187,
        "longitude": 4.47548
      },
      {
        "title": "Snipes",
        "description": "It's an german base sneaker brand that sells the newest sneakers in the game.",
        "latitude": 51.92104,
        "longitude": 4.47693
      },
      {
        "title": "Foot Locker",
        "description": "A well-known sneaker retailer with a branch in Rotterdam, offering a variety of athletic footwear.",
        "latitude": 51.92097,
        "longitude": 4.47670
      },
      {
        "title": "Pirri",
        "description": "Sells shoes for resell, got the most exclusive sneakers in the game in store.",
        "latitude": 51.91911,
        "longitude": 4.47358    
      },
      {
        "title": "Sport 2000",
        "description": "The Sport 2000 is a global retail chain specializing in athletic footwear and sportswear.",
        "latitude": 51.92060,
        "longitude": 4.48372
      },
      {
        "title": "JD Sports",
        "description": "Its an sport store where u can get most of you sport sneakers to run.",
        "latitude": 51.91992,
        "longitude": 4.47725
      },
      {
        "title": "Side Step",
        "description": "Discover the latest trends and classic sneaker styles at Side Step in Rotterdam.",
        "latitude": 51.92026,
        "longitude": 4.47736
      },
      {
        "title": "x21",
        "description": "With a wide range of sneakers and exclusive cloathing brands, is a must-visit store in Rotterdam.",
        "latitude": 51.92087,
        "longitude": 4.48524
      }
    ]
  }

  
  


  